[
  {
    "name": "10 East Doty at Block89",
    "lat": 43.0738631,
    "lon": -89.3816193
  },
  {
    "name": "1610 University Ave.",
    "lat": 43.073705,
    "lon": -89.4146772
  },
  {
    "name": "1910 Linden Dr.",
    "lat": 43.0757184,
    "lon": -89.4179169
  },
  {
    "name": "1932 Linden Drive",
    "lat": 43.0759006,
    "lon": -89.418806
  },
  {
    "name": "206 Bernard Ct.",
    "lat": 43.0713323,
    "lon": -89.4017697
  },
  {
    "name": "25 West Main Street",
    "lat": 43.0728809,
    "lon": -89.3835333
  },
  {
    "name": "306 West Main",
    "lat": 43.0717146,
    "lon": -89.3865996
  },
  {
    "name": "33 East Main at Block89",
    "lat": 43.0742515,
    "lon": -89.3819814
  },
  {
    "name": "420 West",
    "lat": 43.0739035,
    "lon": -89.3935355
  },
  {
    "name": "44 East Mifflin",
    "lat": 43.0764223,
    "lon": -89.3845539
  },
  {
    "name": "502 Herrick Dr.",
    "lat": 43.0753121,
    "lon": -89.4224291
  },
  {
    "name": "699 Station Apartments",
    "lat": 43.0685595,
    "lon": -89.3946735
  },
  {
    "name": "A8 China",
    "lat": 43.0734287,
    "lon": -89.3962375
  },
  {
    "name": "ABC for Health",
    "lat": 43.0707224,
    "lon": -89.3918581
  },
  {
    "name": "Aberdeen Apartments",
    "lat": 43.0731563,
    "lon": -89.3935845
  },
  {
    "name": "AC Hotel Madison Downtown",
    "lat": 43.0765412,
    "lon": -89.3822811
  },
  {
    "name": "Acacia Fraternity",
    "lat": 43.0764553,
    "lon": -89.3934938
  },
  {
    "name": "Adams Hall",
    "lat": 43.0745,
    "lon": -89.403
  },
  {
    "name": "Adams Residence Hall",
    "lat": 43.0778725,
    "lon": -89.4120216
  },
  {
    "name": "Adria",
    "lat": 43.0703413,
    "lon": -89.3836137
  },
  {
    "name": "Agricultural Dean's Residence",
    "lat": 43.0770482,
    "lon": -89.4131524
  },
  {
    "name": "Agricultural Engineering",
    "lat": 43.0747801,
    "lon": -89.4106776
  },
  {
    "name": "Agricultural Engineering Laboratory",
    "lat": 43.0761129,
    "lon": -89.4166605
  },
  {
    "name": "Agricultural Hall",
    "lat": 43.075722,
    "lon": -89.4102797
  },
  {
    "name": "Agricultural Heating Station",
    "lat": 43.0763317,
    "lon": -89.411607
  },
  {
    "name": "Air Force ROTC",
    "lat": 43.0689792,
    "lon": -89.4102928
  },
  {
    "name": "Akasha House",
    "lat": 43.0730936,
    "lon": -89.4152237
  },
  {
    "name": "Alchemy Apartments",
    "lat": 43.0764627,
    "lon": -89.3970468
  },
  {
    "name": "Allen House",
    "lat": 43.0729188,
    "lon": -89.4235439
  },
  {
    "name": "Alpha Chi Omega Sorority",
    "lat": 43.0772414,
    "lon": -89.3922848
  },
  {
    "name": "Alpha Delta Phi Fraternity",
    "lat": 43.0775744,
    "lon": -89.393937
  },
  {
    "name": "Alpha Epsilon Phi Sorority",
    "lat": 43.0770765,
    "lon": -89.3940207
  },
  {
    "name": "Alpha Gamma Rho Fraternity",
    "lat": 43.0772838,
    "lon": -89.3945676
  },
  {
    "name": "Alpha Sigma Phi Fraternity",
    "lat": 43.0776059,
    "lon": -89.3923055
  },
  {
    "name": "Alpha Xi Delta Sorority",
    "lat": 43.0766425,
    "lon": -89.3943528
  },
  {
    "name": "Ambassador West Apartments",
    "lat": 43.0716611,
    "lon": -89.3913578
  },
  {
    "name": "Ambrosia Co-Op",
    "lat": 43.0774665,
    "lon": -89.3940921
  },
  {
    "name": "American Exchange Block",
    "lat": 43.0758863,
    "lon": -89.3829128
  },
  {
    "name": "Animal Science Building",
    "lat": 43.0760305,
    "lon": -89.4152264
  },
  {
    "name": "Armory and Gymnasium",
    "lat": 43.076321,
    "lon": -89.3984731
  },
  {
    "name": "Art Building",
    "lat": 43.0758,
    "lon": -89.4005
  },
  {
    "name": "Art Lofts",
    "lat": 43.0690453,
    "lon": -89.3952435
  },
  {
    "name": "Arthur D. Hasler Laboratory of Limnology",
    "lat": 43.0772459,
    "lon": -89.402967
  },
  {
    "name": "Athletic Operations Building",
    "lat": 43.0688851,
    "lon": -89.4134782
  },
  {
    "name": "Atmosphere",
    "lat": 43.0683398,
    "lon": -89.3970211
  },
  {
    "name": "Atmospheric & Oceanic Sciences",
    "lat": 43.0707362,
    "lon": -89.406935
  },
  {
    "name": "Audre Lorde Co-Op",
    "lat": 43.0767608,
    "lon": -89.3950246
  },
  {
    "name": "Avenir Apartments",
    "lat": 43.0701294,
    "lon": -89.3914578
  },
  {
    "name": "Babcock Hall",
    "lat": 43.0747649,
    "lon": -89.4136728
  },
  {
    "name": "Bakke Recreation & Wellbeing Center",
    "lat": 43.0770457,
    "lon": -89.4200415
  },
  {
    "name": "Bardeen Medical Laboratories",
    "lat": 43.0748414,
    "lon": -89.4070042
  },
  {
    "name": "Barnard Hall",
    "lat": 43.0742,
    "lon": -89.404
  },
  {
    "name": "Barnard Residence Hall",
    "lat": 43.0736788,
    "lon": -89.4022086
  },
  {
    "name": "Barracuda Condos",
    "lat": 43.0708544,
    "lon": -89.3845886
  },
  {
    "name": "Bartell Theatre",
    "lat": 43.0765157,
    "lon": -89.3833376
  },
  {
    "name": "Bascom Hall",
    "lat": 43.0757,
    "lon": -89.4032
  },
  {
    "name": "Bassett Walk",
    "lat": 43.0692719,
    "lon": -89.389931
  },
  {
    "name": "Bassett Warehouse Apartments",
    "lat": 43.069255,
    "lon": -89.3925718
  },
  {
    "name": "Bayliss Cooperative",
    "lat": 43.0759982,
    "lon": -89.397026
  },
  {
    "name": "Bedford Court Condominiums",
    "lat": 43.0680596,
    "lon": -89.3899907
  },
  {
    "name": "Beecroft House",
    "lat": 43.0775332,
    "lon": -89.3905539
  },
  {
    "name": "Bel Mora Apartments",
    "lat": 43.0685312,
    "lon": -89.3912021
  },
  {
    "name": "Bell Wood Apartments",
    "lat": 43.0729334,
    "lon": -89.4219303
  },
  {
    "name": "Best Western Premier Park Hotel",
    "lat": 43.0729792,
    "lon": -89.384826
  },
  {
    "name": "Beta Theta Pi Fraternity",
    "lat": 43.0767724,
    "lon": -89.3963313
  },
  {
    "name": "Bethel Lutheran Church",
    "lat": 43.0768234,
    "lon": -89.3877777
  },
  {
    "name": "Bill’s Key Shop & Locksmith Service",
    "lat": 43.0733698,
    "lon": -89.3952514
  },
  {
    "name": "Biotron Laboratory",
    "lat": 43.0760046,
    "lon": -89.4224968
  },
  {
    "name": "Birge Hall",
    "lat": 43.0744003,
    "lon": -89.4038497
  },
  {
    "name": "Block 100",
    "lat": 43.0745208,
    "lon": -89.3875298
  },
  {
    "name": "Botany Greenhouse",
    "lat": 43.0742226,
    "lon": -89.4037958
  },
  {
    "name": "BP",
    "lat": 43.072656,
    "lon": -89.4248138
  },
  {
    "name": "Bradley Hall",
    "lat": 43.0748,
    "lon": -89.4035
  },
  {
    "name": "Bradley Memorial Building",
    "lat": 43.0746393,
    "lon": -89.4075119
  },
  {
    "name": "Bradley Residence Hall",
    "lat": 43.077971,
    "lon": -89.4164469
  },
  {
    "name": "Brat Stand",
    "lat": 43.0768073,
    "lon": -89.3999383
  },
  {
    "name": "Brogarden",
    "lat": 43.0715,
    "lon": -89.4105
  },
  {
    "name": "Brogden Psychology Building",
    "lat": 43.0726213,
    "lon": -89.4062288
  },
  {
    "name": "Budget Bicycle Center - New Bicycles",
    "lat": 43.067927,
    "lon": -89.4067728
  },
  {
    "name": "Burrows Block at Block89",
    "lat": 43.0740214,
    "lon": -89.3816859
  },
  {
    "name": "Business School",
    "lat": 43.0735,
    "lon": -89.3995
  },
  {
    "name": "Butler Plaza",
    "lat": 43.0771507,
    "lon": -89.3813581
  },
  {
    "name": "Calimar Apartments",
    "lat": 43.078133,
    "lon": -89.3874706
  },
  {
    "name": "Camp Randall Stadium",
    "lat": 43.0700546,
    "lon": -89.412613
  },
  {
    "name": "Camp Randall Stockade",
    "lat": 43.0696493,
    "lon": -89.4102175
  },
  {
    "name": "Campus Hardware True Value",
    "lat": 43.0687542,
    "lon": -89.3919781
  },
  {
    "name": "Capitol Centre Apartments",
    "lat": 43.0730623,
    "lon": -89.389714
  },
  {
    "name": "Capitol Centre Market",
    "lat": 43.0727958,
    "lon": -89.3902364
  },
  {
    "name": "Capitol Chop House",
    "lat": 43.0728718,
    "lon": -89.3804409
  },
  {
    "name": "Capitol Hill Apartments",
    "lat": 43.0767067,
    "lon": -89.3832059
  },
  {
    "name": "Capitol Lakes",
    "lat": 43.0707714,
    "lon": -89.3864617
  },
  {
    "name": "Capitol Parkside Condos",
    "lat": 43.0768041,
    "lon": -89.38382
  },
  {
    "name": "Capitol Point Condos",
    "lat": 43.0771231,
    "lon": -89.3836959
  },
  {
    "name": "Capitol Square North Garage",
    "lat": 43.0776184,
    "lon": -89.3831886
  },
  {
    "name": "Capitol Square Station (EB)",
    "lat": 43.0735169,
    "lon": -89.3835719
  },
  {
    "name": "Capitol Square Station (WB)",
    "lat": 43.0757915,
    "lon": -89.3849094
  },
  {
    "name": "Capitol West",
    "lat": 43.0721429,
    "lon": -89.3871448
  },
  {
    "name": "Capitol West Townhouses",
    "lat": 43.0711108,
    "lon": -89.3882265
  },
  {
    "name": "Carillon Tower",
    "lat": 43.0761165,
    "lon": -89.4050512
  },
  {
    "name": "Carson Gulley",
    "lat": 43.0708,
    "lon": -89.411
  },
  {
    "name": "Carson Gulley Center",
    "lat": 43.077138,
    "lon": -89.411317
  },
  {
    "name": "Central Library",
    "lat": 43.0736214,
    "lon": -89.3875186
  },
  {
    "name": "Chabad at the University of Wisconsin",
    "lat": 43.0753626,
    "lon": -89.3921515
  },
  {
    "name": "Chadbourne",
    "lat": 43.0742,
    "lon": -89.4005
  },
  {
    "name": "Chadbourne Residence Hall",
    "lat": 43.0738145,
    "lon": -89.4012799
  },
  {
    "name": "Chamberlin Hall",
    "lat": 43.0739483,
    "lon": -89.4054421
  },
  {
    "name": "Chapter",
    "lat": 43.067898,
    "lon": -89.400058
  },
  {
    "name": "Chazen Museum of Art",
    "lat": 43.0739028,
    "lon": -89.3987712
  },
  {
    "name": "Cheba Hut",
    "lat": 43.0735117,
    "lon": -89.3948946
  },
  {
    "name": "Chemistry Building",
    "lat": 43.072715,
    "lon": -89.4048877
  },
  {
    "name": "Chen's Noodles & Dumplings",
    "lat": 43.0746871,
    "lon": -89.3939721
  },
  {
    "name": "Chi Omega Sorority",
    "lat": 43.0774654,
    "lon": -89.3910072
  },
  {
    "name": "Chi Psi Fraternity",
    "lat": 43.0777966,
    "lon": -89.3934245
  },
  {
    "name": "Churchill Building",
    "lat": 43.0741519,
    "lon": -89.3861406
  },
  {
    "name": "City Place Apartments",
    "lat": 43.0701034,
    "lon": -89.3889379
  },
  {
    "name": "City View Apartments",
    "lat": 43.0726751,
    "lon": -89.3955483
  },
  {
    "name": "City-County Building",
    "lat": 43.072395,
    "lon": -89.3824557
  },
  {
    "name": "Cole Hall",
    "lat": 43.0773697,
    "lon": -89.4149747
  },
  {
    "name": "Collegiate Madison",
    "lat": 43.0753953,
    "lon": -89.397044
  },
  {
    "name": "Commercial Bank building",
    "lat": 43.0749436,
    "lon": -89.3869796
  },
  {
    "name": "Computer Sceinces Building",
    "lat": 43.0715483,
    "lon": -89.4066496
  },
  {
    "name": "D.C. Smith Greenhouse",
    "lat": 43.0748062,
    "lon": -89.4125006
  },
  {
    "name": "Dairy Barn",
    "lat": 43.0746714,
    "lon": -89.4184279
  },
  {
    "name": "Dairy Cattle Instruction & Research Center",
    "lat": 43.0748475,
    "lon": -89.4171271
  },
  {
    "name": "Dane County Courthouse",
    "lat": 43.0711937,
    "lon": -89.3837988
  },
  {
    "name": "Dane County Public Safety Building",
    "lat": 43.0718162,
    "lon": -89.3835619
  },
  {
    "name": "Daniel K. & Mary Jane Tenney Residence",
    "lat": 43.0770071,
    "lon": -89.3889962
  },
  {
    "name": "David Johnson House",
    "lat": 43.0773497,
    "lon": -89.3895581
  },
  {
    "name": "Dejope",
    "lat": 43.0805,
    "lon": -89.418
  },
  {
    "name": "Dejope Hall",
    "lat": 43.0805,
    "lon": -89.418
  },
  {
    "name": "Dejope Residence Hall",
    "lat": 43.0778385,
    "lon": -89.4176941
  },
  {
    "name": "Delta Chi Fraternity",
    "lat": 43.0768776,
    "lon": -89.3930184
  },
  {
    "name": "Delta Delta Delta Sorority",
    "lat": 43.0777633,
    "lon": -89.3916288
  },
  {
    "name": "Delta Gamma Sorority",
    "lat": 43.0776416,
    "lon": -89.3907703
  },
  {
    "name": "Delta Theta Sigma Fraternity",
    "lat": 43.0760094,
    "lon": -89.3945628
  },
  {
    "name": "Delta Upsilon Fraternity",
    "lat": 43.0771144,
    "lon": -89.3955433
  },
  {
    "name": "DeLuca Biochemical Sciences Building",
    "lat": 43.0743339,
    "lon": -89.4109896
  },
  {
    "name": "DeLuca Biochemistry Building",
    "lat": 43.0738334,
    "lon": -89.4108962
  },
  {
    "name": "DeLuca Biochemistry Laboratories",
    "lat": 43.0741385,
    "lon": -89.4120236
  },
  {
    "name": "Domain",
    "lat": 43.0728316,
    "lon": -89.3919331
  },
  {
    "name": "Doty School Condominiums",
    "lat": 43.0690714,
    "lon": -89.3853998
  },
  {
    "name": "Dowling Apartments",
    "lat": 43.0680038,
    "lon": -89.3872465
  },
  {
    "name": "Doyle Administration Building",
    "lat": 43.0705595,
    "lon": -89.3950406
  },
  {
    "name": "Dunsinane Condos",
    "lat": 43.0721803,
    "lon": -89.4241119
  },
  {
    "name": "Eagle Heights",
    "lat": 43.078,
    "lon": -89.435
  },
  {
    "name": "East Campus Station (EB)",
    "lat": 43.07199,
    "lon": -89.398753
  },
  {
    "name": "East Campus Station (WB)",
    "lat": 43.0733556,
    "lon": -89.3994025
  },
  {
    "name": "Echo Tap and Grill",
    "lat": 43.0681941,
    "lon": -89.3913625
  },
  {
    "name": "Edmund J. & Ida Hart Residence",
    "lat": 43.0776186,
    "lon": -89.3885155
  },
  {
    "name": "Education Building",
    "lat": 43.0757744,
    "lon": -89.4022961
  },
  {
    "name": "Educational Sciences",
    "lat": 43.0718083,
    "lon": -89.4032322
  },
  {
    "name": "Edward F. Riley Rental House",
    "lat": 43.0774744,
    "lon": -89.3893642
  },
  {
    "name": "Elizabeth S. & Dr. Reginald H. Jackson Residence",
    "lat": 43.0772561,
    "lon": -89.3892918
  },
  {
    "name": "Embassy Suites",
    "lat": 43.073853,
    "lon": -89.3803765
  },
  {
    "name": "Engineering Centers Building",
    "lat": 43.0727269,
    "lon": -89.4134224
  },
  {
    "name": "Engineering Hall",
    "lat": 43.0717866,
    "lon": -89.4102901
  },
  {
    "name": "Engineering Research Building",
    "lat": 43.0726022,
    "lon": -89.4116269
  },
  {
    "name": "Environmental Health and Safety Building",
    "lat": 43.0688818,
    "lon": -89.3996742
  },
  {
    "name": "Enzyme Institute",
    "lat": 43.0737553,
    "lon": -89.4153727
  },
  {
    "name": "Equinox",
    "lat": 43.0735754,
    "lon": -89.3929375
  },
  {
    "name": "Estacion Inka",
    "lat": 43.0734359,
    "lon": -89.3965136
  },
  {
    "name": "Eugene A. Gilmore House",
    "lat": 43.0707704,
    "lon": -89.4185035
  },
  {
    "name": "Extension Building",
    "lat": 43.0742176,
    "lon": -89.397895
  },
  {
    "name": "Field House",
    "lat": 43.0686365,
    "lon": -89.4126881
  },
  {
    "name": "First Congregational Church",
    "lat": 43.0731367,
    "lon": -89.4144565
  },
  {
    "name": "First United Methodist Church",
    "lat": 43.0769524,
    "lon": -89.3863156
  },
  {
    "name": "Fleet and Service Garage",
    "lat": 43.0688604,
    "lon": -89.4052811
  },
  {
    "name": "Fluno Center",
    "lat": 43.0728115,
    "lon": -89.3965273
  },
  {
    "name": "Four Lakes",
    "lat": 43.0695,
    "lon": -89.413
  },
  {
    "name": "Freethought Hall",
    "lat": 43.0727473,
    "lon": -89.3876118
  },
  {
    "name": "French House",
    "lat": 43.0770117,
    "lon": -89.3949353
  },
  {
    "name": "Gamma Phi Beta Fraternity",
    "lat": 43.076055,
    "lon": -89.3950361
  },
  {
    "name": "Genetics-Biotechnology Center Building",
    "lat": 43.0738316,
    "lon": -89.4093514
  },
  {
    "name": "Gilman House",
    "lat": 43.0780638,
    "lon": -89.4129625
  },
  {
    "name": "Gilman Plaza",
    "lat": 43.0734501,
    "lon": -89.3950093
  },
  {
    "name": "Gordon Commons",
    "lat": 43.0705,
    "lon": -89.409
  },
  {
    "name": "Gordon Dining and Event Center",
    "lat": 43.0712085,
    "lon": -89.3983163
  },
  {
    "name": "Grace Episcopal Church",
    "lat": 43.0739138,
    "lon": -89.3859868
  },
  {
    "name": "Graduate by Hilton Madison",
    "lat": 43.075513,
    "lon": -89.3956473
  },
  {
    "name": "Grainger Hall",
    "lat": 43.072683,
    "lon": -89.4015595
  },
  {
    "name": "Grand Central",
    "lat": 43.0724649,
    "lon": -89.403675
  },
  {
    "name": "Great Beginnings",
    "lat": 43.0727573,
    "lon": -89.4146926
  },
  {
    "name": "Grimm Book Bindery",
    "lat": 43.0737326,
    "lon": -89.3954485
  },
  {
    "name": "Hamel Music Center",
    "lat": 43.0736696,
    "lon": -89.3979805
  },
  {
    "name": "Hamilton Plaza Apartments",
    "lat": 43.0778957,
    "lon": -89.3844173
  },
  {
    "name": "Hamilton Point Apartments",
    "lat": 43.0697342,
    "lon": -89.3839027
  },
  {
    "name": "Hampton Inn & Suites Madison / Downtown",
    "lat": 43.0727344,
    "lon": -89.3934158
  },
  {
    "name": "Hanson Biomedical Sciences Building",
    "lat": 43.0757323,
    "lon": -89.4149699
  },
  {
    "name": "Harlow Primate Laboratory",
    "lat": 43.0685676,
    "lon": -89.4061732
  },
  {
    "name": "Harold C. Bradley House",
    "lat": 43.0698015,
    "lon": -89.4216545
  },
  {
    "name": "Haven",
    "lat": 43.0743294,
    "lon": -89.3945652
  },
  {
    "name": "Hawthorne Apartments",
    "lat": 43.0751157,
    "lon": -89.3963656
  },
  {
    "name": "Helen C White",
    "lat": 43.0768,
    "lon": -89.3985
  },
  {
    "name": "Helen C. White Hall",
    "lat": 43.0766533,
    "lon": -89.4013223
  },
  {
    "name": "Hilton Garden Inn",
    "lat": 43.068716,
    "lon": -89.3984592
  },
  {
    "name": "Hilton Madison Monona Terrace",
    "lat": 43.0726211,
    "lon": -89.3803357
  },
  {
    "name": "Hiram Smith Hall",
    "lat": 43.0760021,
    "lon": -89.4115736
  },
  {
    "name": "Hiram Smith Hall Annex",
    "lat": 43.0759871,
    "lon": -89.4112918
  },
  {
    "name": "Holt Center",
    "lat": 43.0778414,
    "lon": -89.4144381
  },
  {
    "name": "Holy Redeemer Catholic Church",
    "lat": 43.0756315,
    "lon": -89.3893652
  },
  {
    "name": "Hoofers Sailing Club",
    "lat": 43.076958,
    "lon": -89.400211
  },
  {
    "name": "Horse Barn",
    "lat": 43.0753946,
    "lon": -89.4161213
  },
  {
    "name": "Horticulture",
    "lat": 43.0747096,
    "lon": -89.4119936
  },
  {
    "name": "Hotel Lorraine",
    "lat": 43.0732336,
    "lon": -89.385587
  },
  {
    "name": "Hovde Building",
    "lat": 43.0736375,
    "lon": -89.3863914
  },
  {
    "name": "Hoyt Lodge",
    "lat": 43.0705277,
    "lon": -89.4165136
  },
  {
    "name": "Hoyt Lodge Garage",
    "lat": 43.070695,
    "lon": -89.4165204
  },
  {
    "name": "Humanities",
    "lat": 43.076,
    "lon": -89.399
  },
  {
    "name": "Humbucker Apartments",
    "lat": 43.0699074,
    "lon": -89.406389
  },
  {
    "name": "Humphrey Hall",
    "lat": 43.0775038,
    "lon": -89.4129639
  },
  {
    "name": "Hyatt Place",
    "lat": 43.0717002,
    "lon": -89.387599
  },
  {
    "name": "Inez Apartments",
    "lat": 43.071681,
    "lon": -89.3937936
  },
  {
    "name": "Ingraham Hall",
    "lat": 43.0754966,
    "lon": -89.405397
  },
  {
    "name": "Integrative Biology Research Building",
    "lat": 43.0718275,
    "lon": -89.4050251
  },
  {
    "name": "International Co-Op",
    "lat": 43.0766817,
    "lon": -89.3913784
  },
  {
    "name": "Isaiah Weaver Residence",
    "lat": 43.0775514,
    "lon": -89.3892341
  },
  {
    "name": "J.W. Hobbins Rental House",
    "lat": 43.0770094,
    "lon": -89.3908848
  },
  {
    "name": "Jay's",
    "lat": 43.0735629,
    "lon": -89.3960982
  },
  {
    "name": "John M. Olin House",
    "lat": 43.0705784,
    "lon": -89.4203619
  },
  {
    "name": "Johnson Bank",
    "lat": 43.0735678,
    "lon": -89.3820197
  },
  {
    "name": "Jones House",
    "lat": 43.0780155,
    "lon": -89.4157003
  },
  {
    "name": "Jordan's Big Ten Pub",
    "lat": 43.0680387,
    "lon": -89.4082681
  },
  {
    "name": "Jorns Hall",
    "lat": 43.077726,
    "lon": -89.4133256
  },
  {
    "name": "Kappa Kappa Gamma Sorority",
    "lat": 43.0771174,
    "lon": -89.3925813
  },
  {
    "name": "Keller Building",
    "lat": 43.0705999,
    "lon": -89.390645
  },
  {
    "name": "Kellner Hall",
    "lat": 43.0689637,
    "lon": -89.4119573
  },
  {
    "name": "Kennedy Building",
    "lat": 43.0679627,
    "lon": -89.3929893
  },
  {
    "name": "King Hall",
    "lat": 43.0763111,
    "lon": -89.4108493
  },
  {
    "name": "King St. Station",
    "lat": 43.0744504,
    "lon": -89.380744
  },
  {
    "name": "Kohl Center",
    "lat": 43.0694084,
    "lon": -89.3968712
  },
  {
    "name": "Kronshage",
    "lat": 43.0795,
    "lon": -89.415
  },
  {
    "name": "La Ciel",
    "lat": 43.0728431,
    "lon": -89.3949769
  },
  {
    "name": "LaBahn Arena",
    "lat": 43.0697724,
    "lon": -89.3985435
  },
  {
    "name": "Lake Park Apartments",
    "lat": 43.0677602,
    "lon": -89.3872905
  },
  {
    "name": "Lakeshore",
    "lat": 43.0795,
    "lon": -89.415
  },
  {
    "name": "Lamp House",
    "lat": 43.0769727,
    "lon": -89.3824661
  },
  {
    "name": "Langdon Hall Apartments",
    "lat": 43.0755705,
    "lon": -89.3969867
  },
  {
    "name": "Lark at Kohl",
    "lat": 43.0696971,
    "lon": -89.3942545
  },
  {
    "name": "Lark at Randall",
    "lat": 43.0696111,
    "lon": -89.4094559
  },
  {
    "name": "Lathrop Hall",
    "lat": 43.0736991,
    "lon": -89.4030159
  },
  {
    "name": "Law Building",
    "lat": 43.0745223,
    "lon": -89.4023016
  },
  {
    "name": "Leopold Residence Hall",
    "lat": 43.0775895,
    "lon": -89.4141271
  },
  {
    "name": "Levin Hall",
    "lat": 43.0728,
    "lon": -89.4085
  },
  {
    "name": "Lewis E. & Ella Stevens Residence",
    "lat": 43.0768984,
    "lon": -89.3910044
  },
  {
    "name": "Lexington Apartments",
    "lat": 43.0719792,
    "lon": -89.3926214
  },
  {
    "name": "Linden Drive Ramp",
    "lat": 43.0759989,
    "lon": -89.4196168
  },
  {
    "name": "Livestock Laboratory",
    "lat": 43.0757665,
    "lon": -89.4168545
  },
  {
    "name": "Liz Waters",
    "lat": 43.0798,
    "lon": -89.416
  },
  {
    "name": "Lothlorien Co-Op",
    "lat": 43.077145,
    "lon": -89.3947711
  },
  {
    "name": "Lowell Center",
    "lat": 43.0762198,
    "lon": -89.3958248
  },
  {
    "name": "Lumen House",
    "lat": 43.0753741,
    "lon": -89.3896762
  },
  {
    "name": "Luther Memorial Church",
    "lat": 43.0729439,
    "lon": -89.4033931
  },
  {
    "name": "Mack House",
    "lat": 43.077992,
    "lon": -89.4134542
  },
  {
    "name": "Madison Building Inspection",
    "lat": 43.072163,
    "lon": -89.3845
  },
  {
    "name": "Madison Children's Museum",
    "lat": 43.0768154,
    "lon": -89.3844709
  },
  {
    "name": "Madison Club",
    "lat": 43.0724527,
    "lon": -89.3806985
  },
  {
    "name": "Madison Concourse Hotel",
    "lat": 43.075571,
    "lon": -89.3865174
  },
  {
    "name": "Madison Fire Station No. 1",
    "lat": 43.0737501,
    "lon": -89.390176
  },
  {
    "name": "Madison Fire Station No. 4",
    "lat": 43.0685092,
    "lon": -89.4111999
  },
  {
    "name": "Madison LDS",
    "lat": 43.0732226,
    "lon": -89.4157391
  },
  {
    "name": "Madison Masonic Center",
    "lat": 43.0773835,
    "lon": -89.3867829
  },
  {
    "name": "Madison Municipal Building",
    "lat": 43.0731865,
    "lon": -89.3813268
  },
  {
    "name": "Madison Property Management Inc.",
    "lat": 43.0680829,
    "lon": -89.4061827
  },
  {
    "name": "Madtown Wash",
    "lat": 43.0719287,
    "lon": -89.393472
  },
  {
    "name": "Majestic",
    "lat": 43.0744152,
    "lon": -89.3808535
  },
  {
    "name": "Major James R. & Lois Mears Residence",
    "lat": 43.0770588,
    "lon": -89.389922
  },
  {
    "name": "Mall Concourse/State Street Maintenance",
    "lat": 43.0715661,
    "lon": -89.3848942
  },
  {
    "name": "Manchester Place",
    "lat": 43.0760068,
    "lon": -89.3852063
  },
  {
    "name": "Master Hall",
    "lat": 43.0742643,
    "lon": -89.3938285
  },
  {
    "name": "Materials Science and Engineering",
    "lat": 43.0729946,
    "lon": -89.411289
  },
  {
    "name": "McArdle Building",
    "lat": 43.074433,
    "lon": -89.4089387
  },
  {
    "name": "McClain Athletic Facility",
    "lat": 43.0709079,
    "lon": -89.4113406
  },
  {
    "name": "McDonald's",
    "lat": 43.068016,
    "lon": -89.4045635
  },
  {
    "name": "Meat Science and Animal Biologics Discovery",
    "lat": 43.0759888,
    "lon": -89.4187497
  },
  {
    "name": "Mechanical Engineering Building",
    "lat": 43.0727666,
    "lon": -89.4124486
  },
  {
    "name": "Medical Sciences",
    "lat": 43.0747849,
    "lon": -89.4067418
  },
  {
    "name": "Meiklejohn House",
    "lat": 43.0719974,
    "lon": -89.4059511
  },
  {
    "name": "Memorial Arch",
    "lat": 43.0710919,
    "lon": -89.4093769
  },
  {
    "name": "Memorial Library",
    "lat": 43.0753549,
    "lon": -89.3979775
  },
  {
    "name": "Memorial Union",
    "lat": 43.0765,
    "lon": -89.3962
  },
  {
    "name": "Merit Residence Hall",
    "lat": 43.0707534,
    "lon": -89.4014313
  },
  {
    "name": "Metropolitan Place",
    "lat": 43.0721781,
    "lon": -89.3884075
  },
  {
    "name": "Microbial Sciences Building",
    "lat": 43.0757848,
    "lon": -89.4118711
  },
  {
    "name": "Mifflander Apartments",
    "lat": 43.0712728,
    "lon": -89.3907932
  },
  {
    "name": "Milwaukee Road Depot",
    "lat": 43.0681666,
    "lon": -89.3949221
  },
  {
    "name": "Mister Car Wash",
    "lat": 43.0728711,
    "lon": -89.4240893
  },
  {
    "name": "Moore Hall",
    "lat": 43.074749,
    "lon": -89.411613
  },
  {
    "name": "Morgridge",
    "lat": 43.0752,
    "lon": -89.4018
  },
  {
    "name": "Morgridge Center",
    "lat": 43.0752,
    "lon": -89.4018
  },
  {
    "name": "Morgridge Hall",
    "lat": 43.0727725,
    "lon": -89.4066387
  },
  {
    "name": "Mosse Humanities",
    "lat": 43.076,
    "lon": -89.399
  },
  {
    "name": "Mrs. S.H. Carpenter Rental House",
    "lat": 43.0776921,
    "lon": -89.3890454
  },
  {
    "name": "Muscle & Meat Science Research Laboratory",
    "lat": 43.0745259,
    "lon": -89.4164393
  },
  {
    "name": "Music Hall",
    "lat": 43.0746195,
    "lon": -89.401376
  },
  {
    "name": "Nancy Nicholas Hall",
    "lat": 43.0757192,
    "lon": -89.4086931
  },
  {
    "name": "New Wine Co-op",
    "lat": 43.0760192,
    "lon": -89.389605
  },
  {
    "name": "Nicholas Recreation Center",
    "lat": 43.0705357,
    "lon": -89.3982807
  },
  {
    "name": "Nicholas-Johnson Pavilion and Plaza",
    "lat": 43.0693408,
    "lon": -89.3979821
  },
  {
    "name": "Noland Hall",
    "lat": 43.0715311,
    "lon": -89.4045316
  },
  {
    "name": "Nolen Shore Condominiums",
    "lat": 43.0693474,
    "lon": -89.3847938
  },
  {
    "name": "Noodles & Company",
    "lat": 43.0749443,
    "lon": -89.3894945
  },
  {
    "name": "North Hall",
    "lat": 43.0756941,
    "lon": -89.4029424
  },
  {
    "name": "Norwegian-American Genealogical Center & Naeseth Library",
    "lat": 43.0699841,
    "lon": -89.3880882
  },
  {
    "name": "Nottingham Cooperative",
    "lat": 43.0780106,
    "lon": -89.3927974
  },
  {
    "name": "NoVo Apartments",
    "lat": 43.0734851,
    "lon": -89.3809035
  },
  {
    "name": "Nursing",
    "lat": 43.0738,
    "lon": -89.4065
  },
  {
    "name": "Nutritional Sciences",
    "lat": 43.0747572,
    "lon": -89.4090154
  },
  {
    "name": "OakTree Apartments",
    "lat": 43.0729853,
    "lon": -89.4222466
  },
  {
    "name": "Ofek Shalom Co-Op",
    "lat": 43.0713916,
    "lon": -89.3927136
  },
  {
    "name": "Ogg Residence Hall",
    "lat": 43.0705575,
    "lon": -89.3999527
  },
  {
    "name": "ōLiv Madison",
    "lat": 43.0742603,
    "lon": -89.3916238
  },
  {
    "name": "One East Main at Block89",
    "lat": 43.073847,
    "lon": -89.3823536
  },
  {
    "name": "OPN Architects",
    "lat": 43.0737912,
    "lon": -89.3917309
  },
  {
    "name": "Orchard Station (EB)",
    "lat": 43.0721564,
    "lon": -89.4070954
  },
  {
    "name": "Orchard Station (WB)",
    "lat": 43.0734511,
    "lon": -89.4070164
  },
  {
    "name": "Orpheum Theatre",
    "lat": 43.0751877,
    "lon": -89.3887148
  },
  {
    "name": "Ovation 309",
    "lat": 43.0741534,
    "lon": -89.3901312
  },
  {
    "name": "Overture Center",
    "lat": 43.0748,
    "lon": -89.385
  },
  {
    "name": "Overture Center for the Arts",
    "lat": 43.0741474,
    "lon": -89.3885839
  },
  {
    "name": "Overture Center Ramp",
    "lat": 43.0733465,
    "lon": -89.3893212
  },
  {
    "name": "Paras Building",
    "lat": 43.0750092,
    "lon": -89.3881625
  },
  {
    "name": "Park Place",
    "lat": 43.0715883,
    "lon": -89.3932614
  },
  {
    "name": "Park Regent Apartments",
    "lat": 43.0679721,
    "lon": -89.4014653
  },
  {
    "name": "Park Terrace West",
    "lat": 43.0692902,
    "lon": -89.4087081
  },
  {
    "name": "Pharmacy Building",
    "lat": 43.0742,
    "lon": -89.407
  },
  {
    "name": "Phi Delta Theta Fraternity",
    "lat": 43.0756872,
    "lon": -89.3935128
  },
  {
    "name": "Phi Kappa Sigma Fraternity",
    "lat": 43.0760324,
    "lon": -89.3947317
  },
  {
    "name": "Phillips Hall",
    "lat": 43.0745,
    "lon": -89.4045
  },
  {
    "name": "Pi Beta Phi Sorority",
    "lat": 43.0781111,
    "lon": -89.3925762
  },
  {
    "name": "Pi Kappa Alpha Fraternity",
    "lat": 43.0760835,
    "lon": -89.3929112
  },
  {
    "name": "Pi Kappa Phi Fraternity",
    "lat": 43.0759631,
    "lon": -89.3941913
  },
  {
    "name": "Pi Lambda Phi Fraternity",
    "lat": 43.0708615,
    "lon": -89.4142058
  },
  {
    "name": "Plant Sciences",
    "lat": 43.07457,
    "lon": -89.4122273
  },
  {
    "name": "Porta Bella",
    "lat": 43.0739817,
    "lon": -89.3951984
  },
  {
    "name": "Poultry Research Laboratory",
    "lat": 43.0761021,
    "lon": -89.4179168
  },
  {
    "name": "Pres House",
    "lat": 43.0746336,
    "lon": -89.3987336
  },
  {
    "name": "Pres House Apartments",
    "lat": 43.0743442,
    "lon": -89.3985756
  },
  {
    "name": "Pricked Piercing",
    "lat": 43.0746831,
    "lon": -89.3944959
  },
  {
    "name": "Prost!",
    "lat": 43.0773482,
    "lon": -89.3799082
  },
  {
    "name": "Psychology",
    "lat": 43.0732,
    "lon": -89.405
  },
  {
    "name": "Pyle Center",
    "lat": 43.0762829,
    "lon": -89.3978386
  },
  {
    "name": "Quisling Terrace",
    "lat": 43.0774167,
    "lon": -89.3885169
  },
  {
    "name": "Radio Hall",
    "lat": 43.0759874,
    "lon": -89.4016635
  },
  {
    "name": "Ragstock",
    "lat": 43.0746109,
    "lon": -89.3911732
  },
  {
    "name": "RAYGUN",
    "lat": 43.0751167,
    "lon": -89.3969469
  },
  {
    "name": "Red Rock Saloon",
    "lat": 43.0751282,
    "lon": -89.3917589
  },
  {
    "name": "Red Square Flowers",
    "lat": 43.0746161,
    "lon": -89.3878372
  },
  {
    "name": "Regent Market Co-Op",
    "lat": 43.0680849,
    "lon": -89.4234534
  },
  {
    "name": "Renaissance Apartments",
    "lat": 43.0691331,
    "lon": -89.3903741
  },
  {
    "name": "Rivendell Co-Op",
    "lat": 43.077094,
    "lon": -89.3932941
  },
  {
    "name": "Robert M. Bock Laboratories",
    "lat": 43.0748547,
    "lon": -89.4111031
  },
  {
    "name": "Robert M. Lafollette School of Public Affairs",
    "lat": 43.0762204,
    "lon": -89.4076332
  },
  {
    "name": "Robert W. Kastenmeier Federal Courthouse",
    "lat": 43.073729,
    "lon": -89.3890921
  },
  {
    "name": "Rochdale International Co-op",
    "lat": 43.0760906,
    "lon": -89.3903359
  },
  {
    "name": "Round House",
    "lat": 43.0760592,
    "lon": -89.3964869
  },
  {
    "name": "Russell Laboratories",
    "lat": 43.0755295,
    "lon": -89.4136424
  },
  {
    "name": "Rust-Schreiner Hall",
    "lat": 43.0703306,
    "lon": -89.4069611
  },
  {
    "name": "Saint Paul University Catholic Center",
    "lat": 43.0746533,
    "lon": -89.3984042
  },
  {
    "name": "School of Social Work Building",
    "lat": 43.0742443,
    "lon": -89.4082044
  },
  {
    "name": "Science Hall",
    "lat": 43.0758712,
    "lon": -89.4011488
  },
  {
    "name": "Sellery",
    "lat": 43.0712,
    "lon": -89.407
  },
  {
    "name": "Sellery Hall",
    "lat": 43.0712,
    "lon": -89.407
  },
  {
    "name": "Sellery Residence Hall",
    "lat": 43.0715996,
    "lon": -89.3998606
  },
  {
    "name": "Service Memorial Institute",
    "lat": 43.0744154,
    "lon": -89.4068812
  },
  {
    "name": "Sheelin Apartments",
    "lat": 43.071972,
    "lon": -89.3908981
  },
  {
    "name": "Sigma Alpha Epsilon Fraternity",
    "lat": 43.0767889,
    "lon": -89.3970088
  },
  {
    "name": "Sigma Delta Tau Sorority",
    "lat": 43.0772688,
    "lon": -89.3935367
  },
  {
    "name": "Sigma Lambda Gamma Sorority",
    "lat": 43.0760861,
    "lon": -89.3922629
  },
  {
    "name": "Sigma Pi Fraternity",
    "lat": 43.0768514,
    "lon": -89.391905
  },
  {
    "name": "Skylight Apartments",
    "lat": 43.0745378,
    "lon": -89.3907582
  },
  {
    "name": "Slichter Hall",
    "lat": 43.0735,
    "lon": -89.407
  },
  {
    "name": "Slichter Residence Hall",
    "lat": 43.0771294,
    "lon": -89.4121895
  },
  {
    "name": "Smith",
    "lat": 43.0718,
    "lon": -89.4002
  },
  {
    "name": "Smith Hall",
    "lat": 43.0718,
    "lon": -89.4002
  },
  {
    "name": "Smith Residence Hall",
    "lat": 43.0690507,
    "lon": -89.4003881
  },
  {
    "name": "Soap Opera",
    "lat": 43.0746458,
    "lon": -89.3910019
  },
  {
    "name": "Social Sciences",
    "lat": 43.0762,
    "lon": -89.4015
  },
  {
    "name": "Soils Building",
    "lat": 43.0765172,
    "lon": -89.4112938
  },
  {
    "name": "South Hall",
    "lat": 43.0747956,
    "lon": -89.403124
  },
  {
    "name": "Southeast Campus Ramp",
    "lat": 43.072319,
    "lon": -89.3966468
  },
  {
    "name": "Spring Brook Row Apartments",
    "lat": 43.0697127,
    "lon": -89.4021805
  },
  {
    "name": "St. John's Lutheran Church",
    "lat": 43.0774572,
    "lon": -89.3808614
  },
  {
    "name": "Starbucks",
    "lat": 43.0747066,
    "lon": -89.397013
  },
  {
    "name": "State Street (EB)",
    "lat": 43.0747401,
    "lon": -89.3892419
  },
  {
    "name": "State Street (WB)",
    "lat": 43.0748539,
    "lon": -89.3911959
  },
  {
    "name": "State Street Brats",
    "lat": 43.0746889,
    "lon": -89.395998
  },
  {
    "name": "State Street Capitol Ramp",
    "lat": 43.0754518,
    "lon": -89.3880877
  },
  {
    "name": "Steenbock Memorial Library",
    "lat": 43.0761094,
    "lon": -89.4133308
  },
  {
    "name": "Steensland House",
    "lat": 43.0769507,
    "lon": -89.3882654
  },
  {
    "name": "Sterling Hall",
    "lat": 43.0746201,
    "lon": -89.4054036
  },
  {
    "name": "Stock Pavilion",
    "lat": 43.0748457,
    "lon": -89.4151499
  },
  {
    "name": "Stony Hill Antiques and Gallery",
    "lat": 43.0680786,
    "lon": -89.4236283
  },
  {
    "name": "Stop N Shop",
    "lat": 43.0780092,
    "lon": -89.3820908
  },
  {
    "name": "Stovall Building (Wisconsin State Laboratory of Hygiene)",
    "lat": 43.0747777,
    "lon": -89.409839
  },
  {
    "name": "Suhr Building",
    "lat": 43.0748239,
    "lon": -89.3814582
  },
  {
    "name": "Sullivan Hall",
    "lat": 43.0775427,
    "lon": -89.4154352
  },
  {
    "name": "Summit Ave. Cooperative",
    "lat": 43.0705486,
    "lon": -89.4182324
  },
  {
    "name": "Surfside",
    "lat": 43.0767617,
    "lon": -89.3955493
  },
  {
    "name": "Swenson House",
    "lat": 43.0779354,
    "lon": -89.4152548
  },
  {
    "name": "Tau Kappa Epsilon Fraternity",
    "lat": 43.076599,
    "lon": -89.3933332
  },
  {
    "name": "Taylor Hall",
    "lat": 43.0742635,
    "lon": -89.4093945
  },
  {
    "name": "Teacher Education",
    "lat": 43.0713066,
    "lon": -89.4036019
  },
  {
    "name": "Tenney Plaza",
    "lat": 43.0750467,
    "lon": -89.381773
  },
  {
    "name": "Tenney Plaza Ramp",
    "lat": 43.0752972,
    "lon": -89.381495
  },
  {
    "name": "The Baskerville",
    "lat": 43.0721333,
    "lon": -89.384
  },
  {
    "name": "The BBQ Stand",
    "lat": 43.076888,
    "lon": -89.3992352
  },
  {
    "name": "The Buckingham Inn",
    "lat": 43.0714384,
    "lon": -89.4146636
  },
  {
    "name": "the church in Madison",
    "lat": 43.0734616,
    "lon": -89.417999
  },
  {
    "name": "The Continental",
    "lat": 43.0779011,
    "lon": -89.3802928
  },
  {
    "name": "The Crossing",
    "lat": 43.0730119,
    "lon": -89.4054145
  },
  {
    "name": "The Depot",
    "lat": 43.0684062,
    "lon": -89.3923274
  },
  {
    "name": "The Eleanor",
    "lat": 43.0735766,
    "lon": -89.395565
  },
  {
    "name": "The Embassy",
    "lat": 43.0728746,
    "lon": -89.3943695
  },
  {
    "name": "The Flats at 402",
    "lat": 43.0692811,
    "lon": -89.3866051
  },
  {
    "name": "The Gilman Apartments",
    "lat": 43.0769471,
    "lon": -89.3900919
  },
  {
    "name": "The Heights",
    "lat": 43.0728329,
    "lon": -89.4244221
  },
  {
    "name": "The HUB Madison",
    "lat": 43.0743708,
    "lon": -89.3950949
  },
  {
    "name": "The Jackman Building",
    "lat": 43.0726655,
    "lon": -89.3839989
  },
  {
    "name": "The James",
    "lat": 43.0736298,
    "lon": -89.3942019
  },
  {
    "name": "The Lurican",
    "lat": 43.0722789,
    "lon": -89.3912228
  },
  {
    "name": "The Lux",
    "lat": 43.0726371,
    "lon": -89.3924124
  },
  {
    "name": "The Nitty Gritty",
    "lat": 43.0718295,
    "lon": -89.3956102
  },
  {
    "name": "The Old Fashioned",
    "lat": 43.076292,
    "lon": -89.3835622
  },
  {
    "name": "The Palisades",
    "lat": 43.07173,
    "lon": -89.3950474
  },
  {
    "name": "The Pressman",
    "lat": 43.0723904,
    "lon": -89.3838145
  },
  {
    "name": "The Regent Apartments",
    "lat": 43.0680339,
    "lon": -89.4100378
  },
  {
    "name": "The Rigby Pub",
    "lat": 43.0749848,
    "lon": -89.3810853
  },
  {
    "name": "The Rive Madison",
    "lat": 43.0723057,
    "lon": -89.3941693
  },
  {
    "name": "The Statesider",
    "lat": 43.0751111,
    "lon": -89.3951208
  },
  {
    "name": "The Towers on State",
    "lat": 43.0751558,
    "lon": -89.3957372
  },
  {
    "name": "The Waterfront Apartments",
    "lat": 43.0775633,
    "lon": -89.3929954
  },
  {
    "name": "Theta Delta Chi Fraternity",
    "lat": 43.0777999,
    "lon": -89.3925229
  },
  {
    "name": "Time Square Apartments",
    "lat": 43.0728133,
    "lon": -89.391362
  },
  {
    "name": "Tommy G Thompson Center",
    "lat": 43.0727423,
    "lon": -89.3861688
  },
  {
    "name": "Trainors Store",
    "lat": 43.0679473,
    "lon": -89.3910137
  },
  {
    "name": "Triangle Fraternity",
    "lat": 43.0714378,
    "lon": -89.414204
  },
  {
    "name": "Tripp Hall",
    "lat": 43.0742,
    "lon": -89.4038
  },
  {
    "name": "Tripp Residence Hall",
    "lat": 43.077976,
    "lon": -89.4109305
  },
  {
    "name": "Tuscan Place",
    "lat": 43.0695176,
    "lon": -89.3895888
  },
  {
    "name": "U.S. Bank Plaza",
    "lat": 43.0754874,
    "lon": -89.3821185
  },
  {
    "name": "Union South",
    "lat": 43.0718282,
    "lon": -89.4081406
  },
  {
    "name": "United States Post Office",
    "lat": 43.074506,
    "lon": -89.3970939
  },
  {
    "name": "University Avenue Ramp",
    "lat": 43.0741322,
    "lon": -89.4087827
  },
  {
    "name": "University Gables",
    "lat": 43.0723767,
    "lon": -89.4226345
  },
  {
    "name": "University Square",
    "lat": 43.0726169,
    "lon": -89.398312
  },
  {
    "name": "US Dairy Forage Research Center",
    "lat": 43.07527,
    "lon": -89.4180229
  },
  {
    "name": "UW Credit Union",
    "lat": 43.0688262,
    "lon": -89.4107483
  },
  {
    "name": "UW Foundation",
    "lat": 43.0736542,
    "lon": -89.4174692
  },
  {
    "name": "UW Hillel",
    "lat": 43.075507,
    "lon": -89.3960075
  },
  {
    "name": "Uw Hospital",
    "lat": 43.0775,
    "lon": -89.4295
  },
  {
    "name": "UW-Madison Police and Security Building",
    "lat": 43.0691425,
    "lon": -89.4099628
  },
  {
    "name": "Van Hise Hall",
    "lat": 43.0755805,
    "lon": -89.4068903
  },
  {
    "name": "Van Slyke House",
    "lat": 43.0773979,
    "lon": -89.3903554
  },
  {
    "name": "Van Vleck",
    "lat": 43.0753,
    "lon": -89.4042
  },
  {
    "name": "Vantage Point",
    "lat": 43.0707899,
    "lon": -89.4084945
  },
  {
    "name": "Varsity Campus Apartments",
    "lat": 43.0735191,
    "lon": -89.3972218
  },
  {
    "name": "Veterinary Medicine",
    "lat": 43.0695,
    "lon": -89.418
  },
  {
    "name": "Veterinary Medicine South",
    "lat": 43.0751298,
    "lon": -89.420272
  },
  {
    "name": "Vilas Communication Hall",
    "lat": 43.0726401,
    "lon": -89.399794
  },
  {
    "name": "Vintage Spirits and Grill",
    "lat": 43.0729736,
    "lon": -89.3955009
  },
  {
    "name": "Virtue",
    "lat": 43.069072,
    "lon": -89.3913058
  },
  {
    "name": "Walnut Street Greenhouses",
    "lat": 43.0760167,
    "lon": -89.4240759
  },
  {
    "name": "Walnut Street Heating & Cooling Plant",
    "lat": 43.074329,
    "lon": -89.4242948
  },
  {
    "name": "Wando's Bar & Grill",
    "lat": 43.0734264,
    "lon": -89.3959888
  },
  {
    "name": "Washburn Observatory",
    "lat": 43.0761909,
    "lon": -89.4089491
  },
  {
    "name": "Washington Court Apartments",
    "lat": 43.0695356,
    "lon": -89.3923521
  },
  {
    "name": "Washington Plaza Apartments",
    "lat": 43.0704725,
    "lon": -89.3893362
  },
  {
    "name": "Water Science & Engineering Laboratory",
    "lat": 43.0771024,
    "lon": -89.4018671
  },
  {
    "name": "Waters Hall",
    "lat": 43.0748,
    "lon": -89.405
  },
  {
    "name": "Waters Residence Hall",
    "lat": 43.0769676,
    "lon": -89.4069248
  },
  {
    "name": "Wendt Commons",
    "lat": 43.0714706,
    "lon": -89.4086344
  },
  {
    "name": "West Campus Cogeneration Facility",
    "lat": 43.0750591,
    "lon": -89.4240246
  },
  {
    "name": "West Washington Place",
    "lat": 43.0684832,
    "lon": -89.3936744
  },
  {
    "name": "West Washington Self Storage",
    "lat": 43.0682575,
    "lon": -89.3926651
  },
  {
    "name": "Wiedenbeck Apartments",
    "lat": 43.0688862,
    "lon": -89.3939618
  },
  {
    "name": "Willett S. Main Rental Duplex",
    "lat": 43.0778945,
    "lon": -89.3895092
  },
  {
    "name": "Willett S. Main Rental house",
    "lat": 43.077793,
    "lon": -89.3896222
  },
  {
    "name": "William H. Sewell Social Sciences Building",
    "lat": 43.0765841,
    "lon": -89.4051982
  },
  {
    "name": "William S. Middleton Office Building",
    "lat": 43.0747861,
    "lon": -89.408199
  },
  {
    "name": "Wilson Bay Apartments",
    "lat": 43.0684045,
    "lon": -89.3877355
  },
  {
    "name": "Wisconsin Department of Children And Familes",
    "lat": 43.0760079,
    "lon": -89.3810886
  },
  {
    "name": "Wisconsin Department of Health Services",
    "lat": 43.0718658,
    "lon": -89.3816452
  },
  {
    "name": "Wisconsin Department of Justice",
    "lat": 43.0730952,
    "lon": -89.383082
  },
  {
    "name": "Wisconsin Department of Natural Resources",
    "lat": 43.0753787,
    "lon": -89.3802513
  },
  {
    "name": "Wisconsin Department of Public Instruction",
    "lat": 43.0750616,
    "lon": -89.3795889
  },
  {
    "name": "Wisconsin Design Team",
    "lat": 43.0746646,
    "lon": -89.3924971
  },
  {
    "name": "Wisconsin Energy Institute",
    "lat": 43.0737599,
    "lon": -89.4139404
  },
  {
    "name": "Wisconsin Historical Society",
    "lat": 43.0754043,
    "lon": -89.4000767
  },
  {
    "name": "Wisconsin Institute for Discovery",
    "lat": 43.0728192,
    "lon": -89.4081489
  },
  {
    "name": "Wisconsin Lutheran Chapel",
    "lat": 43.0756977,
    "lon": -89.3927116
  },
  {
    "name": "Wisconsin National Primate Research Center",
    "lat": 43.0690032,
    "lon": -89.406559
  },
  {
    "name": "Wisconsin Primate Center",
    "lat": 43.0685837,
    "lon": -89.4069296
  },
  {
    "name": "Wisconsin State Capitol",
    "lat": 43.0746915,
    "lon": -89.3841656
  },
  {
    "name": "Wisconsin Veterans Museum",
    "lat": 43.0750903,
    "lon": -89.3864569
  },
  {
    "name": "Wisconsin Veterinary Diagnostics Laboratory",
    "lat": 43.074427,
    "lon": -89.4214047
  },
  {
    "name": "Witte",
    "lat": 43.0715,
    "lon": -89.408
  },
  {
    "name": "Witte Hall",
    "lat": 43.0715,
    "lon": -89.408
  },
  {
    "name": "Witte Residence Hall",
    "lat": 43.0714641,
    "lon": -89.3968014
  },
  {
    "name": "X01",
    "lat": 43.072923,
    "lon": -89.4028248
  },
  {
    "name": "YWCA Madison",
    "lat": 43.0764166,
    "lon": -89.3837291
  },
  {
    "name": "Zeta Beta Tau Fraternity",
    "lat": 43.0757861,
    "lon": -89.3933302
  }
]